{"features": [{"geometry": {"coordinates": [-147.7308063, 64.8396862], "type": "Point"}, "properties": {"City": "Fairbanks", "EV Score": 49.3, "EV Zone": "40-50", "MPID": 25, "Max Range Loss": "-69.40%"}, "type": "Feature"}, {"geometry": {"coordinates": [-118.24835449999999, 34.061128100000005], "type": "Point"}, "properties": {"City": "LA", "EV Score": 92.0, "EV Zone": "90-100", "MPID": 0, "Max Range Loss": "-24.30%"}, "type": "Feature"}, {"geometry": {"coordinates": [-99.11894699999999, 19.4267861], "type": "Point"}, "properties": {"City": "Mexico City", "EV Score": 98.0, "EV Zone": "90-100", "MPID": 0, "Max Range Loss": "-11.30%"}, "type": "Feature"}, {"geometry": {"coordinates": [-68.30898520000001, -54.802885399999994], "type": "Point"}, "properties": {"City": "Ushuaia", "EV Score": 63.6, "EV Zone": "60-70", "MPID": 0, "Max Range Loss": "-39.60%"}, "type": "Feature"}, {"geometry": {"coordinates": [-73.9302849, 40.68881939999999], "type": "Point"}, "properties": {"City": "New York", "EV Score": 79.9, "EV Zone": "70-80", "MPID": 0, "Max Range Loss": "-48.00%"}, "type": "Feature"}, {"geometry": {"coordinates": [-68.4959475, 63.7554156], "type": "Point"}, "properties": {"City": "Iqaluit", "EV Score": 27.8, "EV Zone": "20-30", "MPID": 77, "Max Range Loss": "-70.10%"}, "type": "Feature"}, {"geometry": {"coordinates": [-43.2510273, -22.8771973], "type": "Point"}, "properties": {"City": "Rio de Janeiro", "EV Score": 96.4, "EV Zone": "90-100", "MPID": 0, "Max Range Loss": "-11.50%"}, "type": "Feature"}, {"geometry": {"coordinates": [2.3528941000000003, 48.8586119], "type": "Point"}, "properties": {"City": "Paris", "EV Score": 83.4, "EV Zone": "80-90", "MPID": 0, "Max Range Loss": "-38.80%"}, "type": "Feature"}, {"geometry": {"coordinates": [10.7686308, 59.92889350000001], "type": "Point"}, "properties": {"City": "Oslo", "EV Score": 67.9, "EV Zone": "60-70", "MPID": 0, "Max Range Loss": "-53.60%"}, "type": "Feature"}, {"geometry": {"coordinates": [28.040021399999997, -26.1986164], "type": "Point"}, "properties": {"City": "Johannesburg", "EV Score": 94.0, "EV Zone": "90-100", "MPID": 0, "Max Range Loss": "-24.50%"}, "type": "Feature"}, {"geometry": {"coordinates": [36.822663500000004, -1.3038915], "type": "Point"}, "properties": {"City": "Nairobi", "EV Score": 99.4, "EV Zone": "90-100", "MPID": 0, "Max Range Loss": "-4.50%"}, "type": "Feature"}, {"geometry": {"coordinates": [116.4015365, 39.9143245], "type": "Point"}, "properties": {"City": "Beijing", "EV Score": 77.1, "EV Zone": "70-80", "MPID": 0, "Max Range Loss": "-49.40%"}, "type": "Feature"}, {"geometry": {"coordinates": [139.7559629, 35.7044137], "type": "Point"}, "properties": {"City": "Tokyo", "EV Score": 85.5, "EV Zone": "80-90", "MPID": 0, "Max Range Loss": "-31.60%"}, "type": "Feature"}, {"geometry": {"coordinates": [151.08711169999998, -33.8809965], "type": "Point"}, "properties": {"City": "Sydney", "EV Score": 94.1, "EV Zone": "90-100", "MPID": 0, "Max Range Loss": "-17%"}, "type": "Feature"}, {"geometry": {"coordinates": [-0.1258884, 51.5067661], "type": "Point"}, "properties": {"City": "London", "EV Score": 80.0, "EV Zone": "80-90", "MPID": 0, "Max Range Loss": "-36%"}, "type": "Feature"}, {"geometry": {"coordinates": [-122.4289318, 37.7774898], "type": "Point"}, "properties": {"City": "San Francisco", "EV Score": 89.3, "EV Zone": "80-90", "MPID": 0, "Max Range Loss": "-28.40%"}, "type": "Feature"}, {"geometry": {"coordinates": [-122.32513840000001, 47.6065412], "type": "Point"}, "properties": {"City": "Seattle", "EV Score": 81.5, "EV Zone": "80-90", "MPID": 0, "Max Range Loss": "-39.60%"}, "type": "Feature"}, {"geometry": {"coordinates": [4.9049578, 52.3724907], "type": "Point"}, "properties": {"City": "Amsterdam", "EV Score": 79.4, "EV Zone": "70-80", "MPID": 0, "Max Range Loss": "-41.00%"}, "type": "Feature"}, {"geometry": {"coordinates": [121.42167690000001, 31.284178999999998], "type": "Point"}, "properties": {"City": "Shanghai", "EV Score": 86.1, "EV Zone": "80-90", "MPID": 0, "Max Range Loss": "-39.90%"}, "type": "Feature"}, {"geometry": {"coordinates": [18.0674073, 59.335359], "type": "Point"}, "properties": {"City": "Stockholm", "EV Score": 70.0, "EV Zone": "70-80", "MPID": 1, "Max Range Loss": "-53.40%"}, "type": "Feature"}, {"geometry": {"coordinates": [37.5723208, 55.74246089999999], "type": "Point"}, "properties": {"City": "Moscow", "EV Score": 65.9, "EV Zone": "60-70", "MPID": 7, "Max Range Loss": "-61.60%"}, "type": "Feature"}, {"geometry": {"coordinates": [73.0672909, 33.684402399999996], "type": "Point"}, "properties": {"City": "Islamabad", "EV Score": 89.5, "EV Zone": "80-90", "MPID": 0, "Max Range Loss": "-27.20%"}, "type": "Feature"}, {"geometry": {"coordinates": [-77.01898440000001, -12.0305841], "type": "Point"}, "properties": {"City": "Lima", "EV Score": 99.2, "EV Zone": "90-100", "MPID": 0, "Max Range Loss": "-2.80%"}, "type": "Feature"}, {"geometry": {"coordinates": [-7.9858899999999995, 31.627200399999996], "type": "Point"}, "properties": {"City": "Marrakesh", "EV Score": 88.7, "EV Zone": "80-90", "MPID": 0, "Max Range Loss": "-34.60%"}, "type": "Feature"}, {"geometry": {"coordinates": [55.2469179, 25.0174439], "type": "Point"}, "properties": {"City": "Dubai", "EV Score": 76.2, "EV Zone": "70-80", "MPID": 0, "Max Range Loss": "-39.40%"}, "type": "Feature"}, {"geometry": {"coordinates": [77.0688996, 28.5272803], "type": "Point"}, "properties": {"City": "New Delhi", "EV Score": 84.3, "EV Zone": "80-90", "MPID": 0, "Max Range Loss": "-36.90%"}, "type": "Feature"}], "type": "FeatureCollection"}